name,score,subtitle,address,city,state,lat,lng,reviewUrl,directionsUrl,sourceType,confidence,notes
QP Greek Food with a kick,9.1,Phil ate the Half Broasted Chicken (Greek Style),830 N Roselle Rd,Hoffman Estates,IL,42.0436745,-88.0801123,https://www.instagram.com/reel/C1cBCs9OBei/?utm_source=ig_web_copy_link,https://www.google.com/maps/dir/?api=1&destination=830%20N%20Roselle%20Rd%2C%20Hoffman%20Estates%2C%20IL%2060169%2C%20USA,structured-data,high,
Falafil Hut,8.9,Phil got the Double spicy gyro burger.,1027 W Golf Rd,Hoffman Estates,IL,42.0473431,-88.105053,https://www.instagram.com/reel/CwkWhH2Iok8/?utm_source=ig_web_copy_link,https://www.google.com/maps/dir/?api=1&destination=1027%20W%20Golf%20Rd%2C%20Hoffman%20Estates%2C%20IL%2060169%2C%20USA,structured-data,high,
The Assembly Bar,7.8,Phil ate the Bionic Burger.,2570 Hassell Rd,Hoffman Estates,IL,42.0632632,-88.1439688,https://www.instagram.com/reel/CxVRj97uhC3/?utm_source=ig_web_copy_link,https://www.google.com/maps/dir/?api=1&destination=2570%20Hassell%20Rd%2C%20Hoffman%20Estates%2C%20IL%2060169%2C%20USA,structured-data,high,
Pizza Pushers,8.1,Phil ate the Winston Wolf pizza.,644 S Main St,Algonquin,IL,42.1631458,-88.2962489,https://www.instagram.com/super_goode/reel/C5N9PfTrtzV/?hl=en,https://www.google.com/maps/dir/?api=1&destination=644%20S%20Main%20St%2C%20Algonquin%2C%20IL%2060102%2C%20USA,structured-data,high,
Nash Bros,8.5,Phil ate the Nashville Hot Chicken Sandy.,9353 N Milwaukee Ave,Niles,IL,42.0506128,-87.83348699999999,https://www.instagram.com/reel/CxfjRGnOQIv/?utm_source=ig_web_copy_link,https://www.google.com/maps/dir/?api=1&destination=9353%20N%20Milwaukee%20Ave%2C%20Niles%2C%20IL%2060714%2C%20USA,structured-data,high,Present on the current site map but not in the provided known list.
Franks for the Memories,8.6,Phil ate the suicide wings.,645 E Hawley St,Mundelein,IL,42.27079519999999,-87.99414259999999,https://www.instagram.com/reel/C0T8A9cre0k/?utm_source=ig_web_copy_link,https://www.google.com/maps/dir/?api=1&destination=645%20E%20Hawley%20St%2C%20Mundelein%2C%20IL%2060060%2C%20USA,structured-data,high,
JJ Fish & Chicken,8.9,Phil ate the 3Peat Philly Sandwich.,917 Roosevelt Rd,Maywood,IL,41.8644883,-87.844059,https://www.instagram.com/reel/Cz3mdLcrthQ/?utm_source=ig_web_copy_link,https://www.google.com/maps/dir/?api=1&destination=917%20Roosevelt%20Rd%2C%20Maywood%2C%20IL%2060153%2C%20USA,structured-data,high,
Big Boss Spicy Fried Chicken,8.2,Phil ate the Big Boss Sandwich,2520 S Halsted St,Chicago,IL,41.8464821,-87.6467369,https://www.instagram.com/reel/C2r17meLYfW/?utm_source=ig_web_copy_link,https://www.google.com/maps/dir/?api=1&destination=2520%20S%20Halsted%20St%2C%20Chicago%2C%20IL%2060608%2C%20USA,structured-data,high,
Cubano Bros,8.4,Phil ate the orignal Cubano sandwich,571 Landmeier Rd,Elk Grove Village,IL,42.0150902,-87.98025419999999,https://www.instagram.com/reel/CwxOb6auXfN/?utm_source=ig_web_copy_link,https://www.google.com/maps/dir/?api=1&destination=571%20Landmeier%20Rd%2C%20Elk%20Grove%20Village%2C%20IL%2060007%2C%20USA,structured-data,high,
Takito Holic,7.9,Phil ate the Taco Holic Birria,8508 S Cicero Ave,Burbank,IL,41.7377732,-87.7413638,https://www.instagram.com/reel/C1FApWtLabF/?utm_source=ig_web_copy_link,https://www.google.com/maps/dir/?api=1&destination=8508%20S%20Cicero%20Ave%2C%20Burbank%2C%20IL%2060459%2C%20USA,structured-data,high,
Rammy's Sub Contractors,8.2,Phil ate the Radical Italian Beef,1022 E Higgins Rd,Elk Grove Village,IL,42.0272827,-87.9720018,https://www.instagram.com/reel/CuOzdNsubC_/?igsh=MW81dTllNzNpYmpjbg%3D%3D,https://www.google.com/maps/dir/?api=1&destination=1022%20E%20Higgins%20Rd%2C%20Elk%20Grove%20Village%2C%20IL%2060007%2C%20USA,structured-data,high,
Chicago Bagel Authority,9.2,Phil ate the Dank n' Eggs bagel.,953 W Armitage Ave,Chicago,IL,41.9179325,-87.653013,https://www.instagram.com/reel/CuUJ5NFM9T-/?igsh=MThyNjM0MzhuZG04OA%3D%3D,https://www.google.com/maps/dir/?api=1&destination=953%20W%20Armitage%20Ave%2C%20Chicago%2C%20IL%2060614%2C%20USA,structured-data,high,
Fry The Coop,8.1,Phil ate the Spicy Butter Chicken Sandy.,623 W North Ave #7,Elmhurst,IL,41.906116,-87.963764,https://www.instagram.com/reel/CuWyewAufLE/?igsh=MTQ5c3htb3JtMHVsbw%3D%3D,https://www.google.com/maps/dir/?api=1&destination=623%20W%20North%20Ave%20%237%2C%20Elmhurst%2C%20IL%2060126%2C%20USA,structured-data,high,
Ochoa's Mexican Grill,7.8,Phil ate the Quesabirria Tacos.,20586 N Milwaukee Ave,Riverwoods,IL,42.1621627,-87.92004829999999,https://www.instagram.com/reel/CuZWbXnNu58/?igsh=MW9hbWFza3gzcngxbA%3D%3D,https://www.google.com/maps/dir/?api=1&destination=20586%20N%20Milwaukee%20Ave%2C%20Riverwoods%2C%20IL%2060015%2C%20USA,structured-data,high,
Pizza Boy Chicago,8.3,Phil ate The Don detroit style pizza.,6694 N Northwest Hwy,Chicago,IL,42.0025328,-87.8161707,https://www.instagram.com/reel/CuhB-H8LUIR/?igsh=MTc3bTR0Z3VndW8wbw%3D%3D,https://www.google.com/maps/dir/?api=1&destination=6694%20N%20Northwest%20Hwy%2C%20Chicago%2C%20IL%2060631%2C%20USA,structured-data,high,
Paradise Pup,9.1,Phil ate the Bacon Merkt's Cheddar Burger,1724 S River Rd,Des Plaines,IL,42.0221506,-87.87608139999999,https://www.instagram.com/reel/CumLZg7L4Eq/?igsh=MTYyN3M0bG5uYTdkcA%3D%3D,https://www.google.com/maps/dir/?api=1&destination=1724%20S%20River%20Rd%2C%20Des%20Plaines%2C%20IL%2060018%2C%20USA,structured-data,high,Present on the current site map but not in the provided known list.
Cafe Tola,8.7,Phil ate the Spicy Green Pork empanada.,3324 N California Ave,Chicago,IL,41.942678,-87.69812999999999,https://www.instagram.com/reel/CurVfOpr4Xm/?igsh=MWNmMXViNXcyMGFxOQ%3D%3D,https://www.google.com/maps/dir/?api=1&destination=3324%20N%20California%20Ave%2C%20Chicago%2C%20IL%2060618%2C%20USA,structured-data,high,
Panes Bread Cafe,8,Phil ate the The Oaxacan Pork Sandwich,3002 N Sheffield Ave,Chicago,IL,41.9364127,-87.6542164,https://www.instagram.com/reel/CuzEhf3tSJp/?igsh=MW4yZXFxNzFnOXBkaA%3D%3D,https://www.google.com/maps/dir/?api=1&destination=3002%20N%20Sheffield%20Ave%2C%20Chicago%2C%20IL%2060657%2C%20USA,structured-data,high,
Rand Red Hots,7.9,Phil ate the char dog.,1441 Rand Rd,Des Plaines,IL,42.048679,-87.88860939999999,https://www.instagram.com/reel/Cu3wYbwu-Ed/?igsh=MWlvY3A4YTU2ajJn,https://www.google.com/maps/dir/?api=1&destination=1441%20Rand%20Rd%2C%20Des%20Plaines%2C%20IL%2060016%2C%20USA,structured-data,high,
Shwings,8.7,Phil ate the buffalo wings.,1743 Mannheim Rd,Stone Park,IL,41.90506999999999,-87.88326149999999,https://www.instagram.com/reel/Cu9WtVus2aV/?igsh=MXhzeHludnp1ODQ2cQ%3D%3D,https://www.google.com/maps/dir/?api=1&destination=1743%20Mannheim%20Rd%2C%20Stone%20Park%2C%20IL%2060165%2C%20USA,structured-data,high,
Smack Dab Chicago,9.2,Phil ate the Bestest Seller.,6730 N Clark St,Chicago,IL,42.0044342,-87.67327329999999,https://www.instagram.com/reel/CvE-bxgRIWD/?igsh=MWo5YnJmaThsaTJsbg%3D%3D,https://www.google.com/maps/dir/?api=1&destination=6730%20N%20Clark%20St%2C%20Chicago%2C%20IL%2060626%2C%20USA,structured-data,high,
Holt's,8.4,Phil ate the Pepperoni Pizza.,43 S Prospect Ave,Park Ridge,IL,42.0097624,-87.8302994,https://www.instagram.com/reel/CvKPKSnReOc/?igsh=dXZ3Nmp3bDhiZ2wy,https://www.google.com/maps/dir/?api=1&destination=43%20S%20Prospect%20Ave%2C%20Park%20Ridge%2C%20IL%2060068%2C%20USA,structured-data,high,
Porkito,8.3,Phil ate the Sauzee Sandwich.,5349 W Belmont Ave,Chicago,IL,41.9384623,-87.76114969999999,https://www.instagram.com/reel/CvPgMJex1eM/?igsh=MTFvZ2d2b2RtZ2xpMw%3D%3D,https://www.google.com/maps/dir/?api=1&destination=5349%20W%20Belmont%20Ave%2C%20Chicago%2C%20IL%2060641%2C%20USA,structured-data,high,
Village Tavern & Grill,7.7,Phil ate the Chicken Tenders w/ Honey Mustard.,901 W Wise Rd,Schaumburg,IL,42.0041322,-88.1026419,https://www.instagram.com/reel/CvXJY6TOPwc/?igsh=MXVxN2dwMHMwbnVzcA%3D%3D,https://www.google.com/maps/dir/?api=1&destination=901%20W%20Wise%20Rd%2C%20Schaumburg%2C%20IL%2060193%2C%20USA,structured-data,high,
Dario's,8.2,Phil ate the Cubano Sandwich.,51 W Wilson St,Palatine,IL,42.1120222,-88.0454973,https://www.instagram.com/reel/CvcRTW0ORMW/?igsh=a2cwbWEzdDYweG02,https://www.google.com/maps/dir/?api=1&destination=51%20W%20Wilson%20St%2C%20Palatine%2C%20IL%2060067%2C%20USA,structured-data,high,
Dak Dak Korean Wings,8,Phil ate their Soy Garlic wings.,321 E St Charles Rd,Villa Park,IL,41.8896196,-87.97138,https://www.instagram.com/reel/CvhbCR_sXh4/?igsh=MXZnbW0wOHM2eTd3bw%3D%3D,https://www.google.com/maps/dir/?api=1&destination=321%20E%20St%20Charles%20Rd%2C%20Villa%20Park%2C%20IL%2060181%2C%20USA,structured-data,high,
Monti's,9.2,Phil ate the Philly Cheesesteak Sandwich.,4757 N Talman Ave,Chicago,IL,41.9682788,-87.6948403,https://www.instagram.com/reel/CvpIMuatSev/?igsh=MWdneHZoaGY5MnNqeg%3D%3D,https://www.google.com/maps/dir/?api=1&destination=4757%20N%20Talman%20Ave%2C%20Chicago%2C%20IL%2060625%2C%20USA,structured-data,high,
Dawg Park,8,Phil ate the Muddy Dog hot dog.,100 W Higgins Rd suite L60,South Barrington,IL,42.0737245,-88.1824121,https://www.instagram.com/reel/CvuXWn8uVqO/?igsh=bGRoZHY5em92dzVk,https://www.google.com/maps/dir/?api=1&destination=100%20W%20Higgins%20Rd%20suite%20L60%2C%20South%20Barrington%2C%20IL%2060010%2C%20USA,structured-data,high,
The Sandlot,8.2,Phil ate the Two-N-Two Burger.,1120 W Touhy Ave,Park Ridge,IL,42.011052,-87.84025969999999,https://www.instagram.com/reel/CvzbNiBuwIL/?igsh=MTFtYXBpbHRxYmQ4bw%3D%3D,https://www.google.com/maps/dir/?api=1&destination=1120%20W%20Touhy%20Ave%2C%20Park%20Ridge%2C%20IL%2060068%2C%20USA,structured-data,high,
Evette's,8.4,Phil ate the Halloumi Tacos.,350 W Armitage Ave,Chicago,IL,41.9184191,-87.6383609,https://www.instagram.com/reel/Cv7Jv2Yt_L2/?igsh=MXBuZnlzdmprajdiYw%3D%3D,https://www.google.com/maps/dir/?api=1&destination=350%20W%20Armitage%20Ave%2C%20Chicago%2C%20IL%2060614%2C%20USA,structured-data,high,
Tony's Italian Deli,7.8,Phil ate the Italian Sub.,6708 N Northwest Hwy,Chicago,IL,42.0028377,-87.8166644,https://www.instagram.com/reel/CwAWBnSu7x7/?igsh=MWYzdXpwMzlucjVocQ%3D%3D,https://www.google.com/maps/dir/?api=1&destination=6708%20N%20Northwest%20Hwy%2C%20Chicago%2C%20IL%2060631%2C%20USA,structured-data,high,
Urban Counter,8.2,Phil ate the Breakfast Burrito.,1400 W Algonquin Rd,Palatine,IL,42.0794821,-88.0784374,https://www.instagram.com/reel/CwFV5xyop6s/?igsh=cTRuYWJoZDg1MDk4,https://www.google.com/maps/dir/?api=1&destination=1400%20W%20Algonquin%20Rd%2C%20Palatine%2C%20IL%2060067%2C%20USA,structured-data,high,
Jim's Original,8.1,Phil ate the Polish Sausage + Pork Chop Sandwich.,2775 N Elston Ave,Chicago,IL,41.9319423,-87.6869081,https://www.instagram.com/reel/CwNM0jmozI_/?igsh=Nnk4NW12ZTh0cjgx,https://www.google.com/maps/dir/?api=1&destination=2775%20N%20Elston%20Ave%2C%20Chicago%2C%20IL%2060647%2C%20USA,structured-data,high,
QuesaBirria Jalisco Tacos,9.1,Phil ate the Quesabirria.,1314 W 18th St,Chicago,IL,41.8580208,-87.65953999999999,https://www.instagram.com/reel/CwSPI90o3ru/?igsh=aTgwOWUxZWR2c25v,https://www.google.com/maps/dir/?api=1&destination=1314%20W%2018th%20St%2C%20Chicago%2C%20IL%2060608%2C%20USA,structured-data,high,
Porky's BBQ,8.2,Phil ate the Combo Brisket/ Pulled Pork Sandy.,41 S Dunton Ave,Arlington Heights,IL,42.0812674,-87.98278739999999,https://www.instagram.com/reel/CwXiiEaoDZs/?igsh=MWJ5dXU0ejl1cXF1aw%3D%3D,https://www.google.com/maps/dir/?api=1&destination=41%20S%20Dunton%20Ave%2C%20Arlington%20Heights%2C%20IL%2060005%2C%20USA,structured-data,high,Present on the current site map but not in the provided known list.
Gators Wing Shack,8.4,Phil ate the Garlic Buffalo Wings,1719 Rand Rd,Palatine,IL,42.14087929999999,-88.0232005,https://www.instagram.com/reel/CwfOxg9o7Gs/?igsh=MXU5b2hhMHpkdXdsMg%3D%3D,https://www.google.com/maps/dir/?api=1&destination=1719%20Rand%20Rd%2C%20Palatine%2C%20IL%2060074%2C%20USA,structured-data,high,
El Asadero,8.1,Phil ate the Steak Burrito.,2213 W Montrose Ave,Chicago,IL,41.9612716,-87.68433390000001,https://www.tiktok.com/@super_goode/video/7273825680779906347,https://www.google.com/maps/dir/?api=1&destination=2213%20W%20Montrose%20Ave%2C%20Chicago%2C%20IL%2060618%2C%20USA,structured-data,high,
Pita BBQ,7.8,Phil ate the Spicy Chicken Shawarma.,19 S Sutton Rd,Streamwood,IL,42.030478,-88.2009743,https://www.instagram.com/reel/Cw7hpXJuFak/?igsh=MXJ4ZHozN21qMmJldQ%3D%3D,https://www.google.com/maps/dir/?api=1&destination=19%20S%20Sutton%20Rd%2C%20Streamwood%2C%20IL%2060107%2C%20USA,structured-data,high,
Chicago Culinary Kitchen,8.5,Phil ate the Dry Aged Smoked Tomahawk Ribeye Steak.,2391 N Hicks Rd,Palatine,IL,42.1533062,-88.0281268,https://www.instagram.com/reel/CxDPhQfOmYB/?igsh=ODJzb3p5Yjl4ZWMz,https://www.google.com/maps/dir/?api=1&destination=2391%20N%20Hicks%20Rd%2C%20Palatine%2C%20IL%2060074%2C%20USA,structured-data,high,
Cracked,7.6,Phil ate the Sloppy Jose breakfast sandy.,1359 N Milwaukee Ave,Chicago,IL,41.9067149,-87.6712694,https://www.instagram.com/reel/CxIZb7NuXwC/?igsh=MWVvNHF3bWtidjVtbw%3D%3D,https://www.google.com/maps/dir/?api=1&destination=1359%20N%20Milwaukee%20Ave%2C%20Chicago%2C%20IL%2060622%2C%20USA,structured-data,high,
B.B.Q Chicken,7.8,Phil ate the Honey Garlic Korean Fried Chicken.,247 W Golf Rd,Schaumburg,IL,42.0482614,-88.0857825,https://www.instagram.com/reel/CxNi8imOKCl/?igsh=MXVtd2N0bHZ5bmZoMQ%3D%3D,https://www.google.com/maps/dir/?api=1&destination=247%20W%20Golf%20Rd%2C%20Schaumburg%2C%20IL%2060195%2C%20USA,structured-data,high,
Ricobene's,8.1,Phil ate the Breaded Steak Sandwich.,252 W 26th St,Chicago,IL,41.8457619,-87.63394629999999,https://www.instagram.com/reel/CxabgULOadq/?igsh=YWZ4eGx2NWFkcXc2,https://www.google.com/maps/dir/?api=1&destination=252%20W%2026th%20St%2C%20Chicago%2C%20IL%2060616%2C%20USA,structured-data,high,
Thlaco Taco,8.1,Phil ate the Quesabirria Tacos.,5529 County Farm Rd,Hanover Park,IL,41.97271490000001,-88.14974319999999,https://www.instagram.com/reel/CxnTfZ4uS9B/?igsh=MTVqdXl4MjcxeXkwcQ%3D%3D,https://www.google.com/maps/dir/?api=1&destination=5529%20County%20Farm%20Rd%2C%20Hanover%20Park%2C%20IL%2060133%2C%20USA,structured-data,high,
En Hakkore 2.0,8.2,Phil ate the Crunch & Fire Sushi Burrito.,1467 N Milwaukee Ave,Chicago,IL,41.9086691,-87.6743166,https://www.instagram.com/reel/Cxxl70mOedV/?igsh=eDJjM3F2dGF1OTVr,https://www.google.com/maps/dir/?api=1&destination=1467%20N%20Milwaukee%20Ave%2C%20Chicago%2C%20IL%2060622%2C%20USA,structured-data,high,
Pupuseria Cheros,7.6,Phil ate the Pupusas.,704 E Higgins Rd,Schaumburg,IL,42.0418363,-88.0621886,https://www.instagram.com/reel/Cx5aQcgOqN-/?igsh=bzE1ZWprMmtneGp3,https://www.google.com/maps/dir/?api=1&destination=704%20E%20Higgins%20Rd%2C%20Schaumburg%2C%20IL%2060173%2C%20USA,structured-data,high,
Boba Burger,8.6,Phil ate the Seoul Burger.,8530 Waukegan Rd,Morton Grove,IL,42.0368246,-87.7999438,https://www.instagram.com/reel/Cx-eRgDOBKt/?igsh=MWw1bW4zczQ0bTlvdQ%3D%3D,https://www.google.com/maps/dir/?api=1&destination=8530%20Waukegan%20Rd%2C%20Morton%20Grove%2C%20IL%2060053%2C%20USA,structured-data,high,
Big Ange's Eatery,8.7,Phil ate the Prime Brisket Sandwich.,640 W Northwest Hwy,Arlington Heights,IL,42.0881431,-87.991468,https://www.instagram.com/reel/CyDnjapuiaP/?igsh=MWIwdW5sZzhybjV5Yg%3D%3D,https://www.google.com/maps/dir/?api=1&destination=640%20W%20Northwest%20Hwy%2C%20Arlington%20Heights%2C%20IL%2060004%2C%20USA,structured-data,high,
Aloha Wagon,8,Phil ate the Loco Moco plate.,2023 S Western Ave,Chicago,IL,41.8540455,-87.6854852,https://www.instagram.com/reel/CyLV4xvO2yg/?igsh=eGRnZWp6eXYzbTVv,https://www.google.com/maps/dir/?api=1&destination=2023%20S%20Western%20Ave%2C%20Chicago%2C%20IL%2060608%2C%20USA,structured-data,high,
Johnnie's Beef,9.3,Phil ate the Italian Beef.,7500 W North Ave,Elmwood Park,IL,41.9089952,-87.8133099,https://www.instagram.com/reel/CyQfki0umhB/?igsh=MTFjdTR6cjQ0dzg3Ng%3D%3D,https://www.google.com/maps/dir/?api=1&destination=7500%20W%20North%20Ave%2C%20Elmwood%20Park%2C%20IL%2060707%2C%20USA,structured-data,high,
Marco Roma,7.8,Phil ate the Chicken Parmesan Sandy.,14 Green Bay Rd,Winnetka,IL,42.0911948,-87.7216766,https://www.instagram.com/reel/CyVpNehu4Z3/?igsh=MXNtaG5nMm9rbjRlbA%3D%3D,https://www.google.com/maps/dir/?api=1&destination=14%20Green%20Bay%20Rd%2C%20Winnetka%2C%20IL%2060093%2C%20USA,structured-data,high,
Felicia's Deli,8.4,Phil ate the Beast Sub.,664 Meacham Rd,Elk Grove Village,IL,42.0057442,-88.0466624,https://www.instagram.com/reel/CyihTFjOd7Q/?igsh=MWd1NHExYmx4bWtveg%3D%3D,https://www.google.com/maps/dir/?api=1&destination=664%20Meacham%20Rd%2C%20Elk%20Grove%20Village%2C%20IL%2060007%2C%20USA,structured-data,high,
Taco Boom,7.7,Phil ate the Quesabirria tacos.,5116 N Lincoln Ave,Chicago,IL,41.9745636,-87.6924804,https://www.instagram.com/reel/Cynq09hOq3_/?igsh=MWE3aGRleXFobHRmcw%3D%3D,https://www.google.com/maps/dir/?api=1&destination=5116%20N%20Lincoln%20Ave%2C%20Chicago%2C%20IL%2060625%2C%20USA,structured-data,high,
Pizza Bella,8.2,Phil ate the Pepperoni detroit style pizza.,16 N Brockway St,Palatine,IL,42.1108226,-88.0464714,https://www.instagram.com/reel/CyvZjIUugqm/?igsh=YzI0NDhrZmZlaWg3,https://www.google.com/maps/dir/?api=1&destination=16%20N%20Brockway%20St%2C%20Palatine%2C%20IL%2060067%2C%20USA,structured-data,high,
Student Burger,7.5,Phil ate the Philly Cheesesteak Sandy.,2110 Army Trail Rd,Addison,IL,41.9332944,-88.0430774,https://www.instagram.com/reel/Cy0i9gZLPaD/?igsh=bHNpMDh2a3Fqd2lm,https://www.google.com/maps/dir/?api=1&destination=2110%20Army%20Trail%20Rd%2C%20Addison%2C%20IL%2060101%2C%20USA,structured-data,high,
Chi Tea,8.3,Phil ate the Chi Tea Classic Burger.,602 W Wise Rd,Schaumburg,IL,42.0053852,-88.0947647,https://www.instagram.com/reel/Cy5sdQ_rMYR/?igsh=MWVqeXVqbjMybTFidw%3D%3D,https://www.google.com/maps/dir/?api=1&destination=602%20W%20Wise%20Rd%2C%20Schaumburg%2C%20IL%2060193%2C%20USA,structured-data,high,
Nonna's,8.6,Phil ate the Chicken Parmesan Sandy.,925 W Randolph St,Chicago,IL,41.884046,-87.6508054,https://www.instagram.com/reel/CzBa9xyLjzQ/?igsh=MTQyeHoycXY1OTY3cw%3D%3D,https://www.google.com/maps/dir/?api=1&destination=925%20W%20Randolph%20St%2C%20Chicago%2C%20IL%2060607%2C%20USA,structured-data,high,
Fry Chicken n Fries,8.1,Phil ate the Chicken Tenders.,8439 W Golf Rd,Niles,IL,42.0541765,-87.8367617,https://www.instagram.com/reel/CzGjJbcr8En/?igsh=MW14dGZiMThmOTV4Yw%3D%3D,https://www.google.com/maps/dir/?api=1&destination=8439%20W%20Golf%20Rd%2C%20Niles%2C%20IL%2060714%2C%20USA,structured-data,high,
Schmaltz Deli,8.2,Phil ate The Sloppy Paul sandy.,3011 Ogden Ave,Lisle,IL,41.7960768,-88.11089779999999,https://www.instagram.com/reel/CzLuHo_LRFV/?igsh=andoNmhpdzNib3gy,https://www.google.com/maps/dir/?api=1&destination=3011%20Ogden%20Ave%2C%20Lisle%2C%20IL%2060532%2C%20USA,structured-data,high,
Byrds Hot Chicken,7.9,Phil ate the Hot Chicken Sandy.,925 Roselle Rd,Schaumburg,IL,42.01036490000001,-88.0796197,https://www.instagram.com/reel/CzThaCxrwsR/?igsh=c2loeHkwbDdkamN5,https://www.google.com/maps/dir/?api=1&destination=925%20Roselle%20Rd%2C%20Schaumburg%2C%20IL%2060193%2C%20USA,structured-data,high,
Savory Crust,8.8,Phil ate the Empanadas. (Philly & Argentinian),7180 Dempster St,Morton Grove,IL,42.0414672,-87.8057912,https://www.instagram.com/reel/CzYrEaBL5sl/?igsh=MXg2cDBnejRucDVn,https://www.google.com/maps/dir/?api=1&destination=7180%20Dempster%20St%2C%20Morton%20Grove%2C%20IL%2060053%2C%20USA,structured-data,high,
Scatchell's Beef,9.1,Phil ate the Italian Beef.,4700 W Cermak Rd,Cicero,IL,41.8516491,-87.7421237,https://www.instagram.com/reel/Czd17XWr-J1/?igsh=eG5tOGJ2ZXZkZzhl,https://www.google.com/maps/dir/?api=1&destination=4700%20W%20Cermak%20Rd%2C%20Cicero%2C%20IL%2060804%2C%20USA,structured-data,high,
La Birria Loca,8.5,Phil ate the Birria Quesadilla.,27W570 High Lake Rd,Winfield,IL,41.8714088,-88.16022869999999,https://www.instagram.com/reel/CzlkumurPq-/?igsh=OHQ5MWhrc253aHBx,https://www.google.com/maps/dir/?api=1&destination=27W570%20High%20Lake%20Rd%2C%20Winfield%2C%20IL%2060190%2C%20USA,structured-data,high,
Culinary Gangster,8.3,Phil ate the Spicy Gangster Burger.,1216 Waukegan Rd,Glenview,IL,42.0766096,-87.7991004,https://www.instagram.com/reel/CzquH3fLXkW/?igsh=MTd5bXlla3VwY2MyZA%3D%3D,https://www.google.com/maps/dir/?api=1&destination=1216%20Waukegan%20Rd%2C%20Glenview%2C%20IL%2060025%2C%20USA,structured-data,high,
Nu Crepes,9,Phil ate the Inside Out Boy Crepe.,115 W Schiller Ct,Elmhurst,IL,41.9010898,-87.94068089999999,https://www.instagram.com/reel/Czv4HMgLNHy/?igsh=MWFxZTl5MHpleDFodg%3D%3D,https://www.google.com/maps/dir/?api=1&destination=115%20W%20Schiller%20Ct%2C%20Elmhurst%2C%20IL%2060126%2C%20USA,structured-data,high,
One Taco Dos Tequila's,8.4,Phil ate the Lomo Burrito.,375 W Northwest Hwy,Palatine,IL,42.1227415,-88.05346,https://www.instagram.com/reel/Cz8wXYBO_6d/?igsh=MWMzNG4xcXVscnF6OQ%3D%3D,https://www.google.com/maps/dir/?api=1&destination=375%20W%20Northwest%20Hwy%2C%20Palatine%2C%20IL%2060067%2C%20USA,structured-data,high,
Apolis Greek Street Food,8.6,Phil ate the Skepasti Greek Quesadilla.,1109 Maple Ave,Lisle,IL,41.7860863,-88.0730899,https://www.instagram.com/reel/C0B5SFZL4uA/?igsh=MWN1Ynk4aXozdms5,https://www.google.com/maps/dir/?api=1&destination=1109%20Maple%20Ave%2C%20Lisle%2C%20IL%2060532%2C%20USA,structured-data,high,
Pinoy Grill,8.2,Phil ate the Chicken Adobo Plate & the Dinuguan.,2324 E Rand Rd,Arlington Heights,IL,42.0962258,-87.95474,https://www.instagram.com/reel/C0Jn56dODcK/?igsh=MTA0enppcGZmbWo0Yg%3D%3D,https://www.google.com/maps/dir/?api=1&destination=2324%20E%20Rand%20Rd%2C%20Arlington%20Heights%2C%20IL%2060004%2C%20USA,structured-data,high,
Maz Mez Grill,7.7,Phil ate the Chicken Schawarma Wrap.,642 Meacham Rd,Elk Grove Village,IL,42.0062713,-88.046949,https://www.instagram.com/reel/C0OxM09OP4t/?igsh=djc0bGZuaHE2bWt6,https://www.google.com/maps/dir/?api=1&destination=642%20Meacham%20Rd%2C%20Elk%20Grove%20Village%2C%20IL%2060007%2C%20USA,structured-data,high,
Chicago Pickle Eatery,7.9,Phil ate the NY Chopped Cheese.,3055 N Milwaukee Ave,Chicago,IL,41.9367787,-87.7197437,https://www.instagram.com/reel/C0bpVzkuEuK/?igsh=MTV1czNtZXhqczI0aQ%3D%3D,https://www.google.com/maps/dir/?api=1&destination=3055%20N%20Milwaukee%20Ave%2C%20Chicago%2C%20IL%2060618%2C%20USA,structured-data,high,
Priscilla's Ultimate Soul Food,8.2,Phil ate the Fried Chicken Plate.,4330 Roosevelt Rd,Hillside,IL,41.8632312,-87.8908428,https://www.instagram.com/reels/C0gzKBBu_tR/,https://www.google.com/maps/dir/?api=1&destination=4330%20Roosevelt%20Rd%2C%20Hillside%2C%20IL%2060162%2C%20USA,structured-data,high,Review URL was missing from both the structured payload and popup HTML.
Pizza Pavia,8.4,Phil ate the Chicken Parm Pizza.,6 N Elmhurst Rd,Prospect Heights,IL,42.0960596,-87.9372717,https://www.instagram.com/reel/C0l8hDHrWhL/?igsh=eW82ZGdoeXFybDlv,https://www.google.com/maps/dir/?api=1&destination=6%20N%20Elmhurst%20Rd%2C%20Prospect%20Heights%2C%20IL%2060070%2C%20USA,structured-data,high,
Jay's Beef,8.1,Phil ate the Italian Beef.,4418 N Narragansett Ave,Chicago,IL,41.9607272,-87.78720849999999,https://www.instagram.com/reel/C0tq_a4LMQk/?igsh=bTB2dzlucm03eHZu,https://www.google.com/maps/dir/?api=1&destination=4418%20N%20Narragansett%20Ave%2C%20Chicago%2C%20IL%2060706%2C%20USA,structured-data,high,
Capri Deli,8.5,Phil ate the Capri Special on Focaccia Bread.,1625 Rand Rd,Palatine,IL,42.1400593,-88.0223087,https://www.instagram.com/reel/C0y0q_jr6VI/?igsh=MTYyaDRsdDM3Y2V6eA%3D%3D,https://www.google.com/maps/dir/?api=1&destination=1625%20Rand%20Rd%2C%20Palatine%2C%20IL%2060074%2C%20USA,structured-data,high,
Vasco's Peri Peri,7.7,Phil ate a Tandoori Chicken Burger.,927 S Roselle Rd,Schaumburg,IL,42.01037059999999,-88.0789344,https://www.instagram.com/reel/C03-IF7LQai/?igsh=bGR3djU2djMwOXFx,https://www.google.com/maps/dir/?api=1&destination=927%20S%20Roselle%20Rd%2C%20Schaumburg%2C%20IL%2060193%2C%20USA,structured-data,high,
Mima's Taste of Cuba,8.5,Phil ate the Cubano Jibarito.,2925 W Irving Park Rd,Chicago,IL,41.9537207,-87.7017089,https://www.instagram.com/reel/C0_sI7JLwmr/?igsh=MWFoN3U5a3hzZXg0cQ%3D%3D,https://www.google.com/maps/dir/?api=1&destination=2925%20W%20Irving%20Park%20Rd%2C%20Chicago%2C%20IL%2060618%2C%20USA,structured-data,high,
The Canteen Restaurant,7.6,Phil ate the Diablo Brisket Sandy.,214 S Hough St,Barrington,IL,42.1527004,-88.1362494,https://www.instagram.com/reel/C1J_y6rrmZN/?igsh=M2U2aWJvMGkxdXZn,https://www.google.com/maps/dir/?api=1&destination=214%20S%20Hough%20St%2C%20Barrington%2C%20IL%2060010%2C%20USA,structured-data,high,
Nottoli Italian Foods,8.2,Phil ate the Eggplant Parmesan Sandy.,5025 N Harlem Ave,Chicago,IL,41.9726694,-87.8067598,https://www.instagram.com/reel/C1RvW1jOcme/?igsh=MXgzb2txczV3MzRsag%3D%3D,https://www.google.com/maps/dir/?api=1&destination=5025%20N%20Harlem%20Ave%2C%20Chicago%2C%20IL%2060656%2C%20USA,structured-data,high,
The Philly Special,8.3,Phil ate the Philly Cheesesteak sandy.,1408 Butterfield Rd,Mundelein,IL,42.2425098,-87.9784395,https://www.instagram.com/reel/C1W50nDrW5i/?igsh=ajRrNXVmbGp3ZHA0,https://www.google.com/maps/dir/?api=1&destination=1408%20Butterfield%20Rd%2C%20Mundelein%2C%20IL%2060060%2C%20USA,structured-data,high,
Fatt Mustard,7.8,Phil ate the Charlie Sheen Burger.,586 E Devon Ave,Elk Grove Village,IL,41.9934916,-87.9800114,https://www.instagram.com/reel/C1jvxjNO-wv/?igsh=YXAwbGFwZmFpNjcy,https://www.google.com/maps/dir/?api=1&destination=586%20E%20Devon%20Ave%2C%20Elk%20Grove%20Village%2C%20IL%2060007%2C%20USA,structured-data,high,
Hello Shawarma,9,Phil ate the Bashka (middle eastern cheesteak sandy),10272 S Harlem Ave,Bridgeview,IL,41.7055337,-87.7987342,https://www.instagram.com/reel/C1o5R_wLjYh/?igsh=MWUzd3lvaDdzc3VlbA%3D%3D,https://www.google.com/maps/dir/?api=1&destination=10272%20S%20Harlem%20Ave%2C%20Bridgeview%2C%20IL%2060455%2C%20USA,structured-data,high,
Hot Pockets Bar,7.7,Phil ate the Buffalo Wings.,365 W Northwest Hwy,Palatine,IL,42.1228314,-88.0534601,https://www.instagram.com/reel/C1uC5rlraEl/?igsh=MTU4ancwazB5NGU5bQ%3D%3D,https://www.google.com/maps/dir/?api=1&destination=365%20W%20Northwest%20Hwy%2C%20Palatine%2C%20IL%2060067%2C%20USA,structured-data,high,
Elena's Deli,8.7,Phil ate the Bourdain Sub.,800 Lake St #106,Roselle,IL,41.9656388,-88.1032038,https://www.instagram.com/reel/C11xUvULJ87/?igsh=MWR5dTVndGJyNDR5NQ%3D%3D,https://www.google.com/maps/dir/?api=1&destination=800%20Lake%20St%20%23106%2C%20Roselle%2C%20IL%2060172%2C%20USA,structured-data,high,
Hagen's Fish Market,7.8,Phil ate the Classic Fish Sandy.,5635 W Montrose Ave,Chicago,IL,41.9602407,-87.76862969999999,https://www.instagram.com/reel/C1662wbLkYA/?igsh=MWxrZ2R3azVyaTBiMg%3D%3D,https://www.google.com/maps/dir/?api=1&destination=5635%20W%20Montrose%20Ave%2C%20Chicago%2C%20IL%2060634%2C%20USA,structured-data,high,
Spiro's Deli,7.9,Phil ate the Bomber Sandwich.,1210 Waukegan Rd,Glenview,IL,42.0765526,-87.79918610000001,https://www.instagram.com/reel/C2AElbqLOoK/?igsh=MXRsbGZ2b2toc3MzeQ%3D%3D,https://www.google.com/maps/dir/?api=1&destination=1210%20Waukegan%20Rd%2C%20Glenview%2C%20IL%2060025%2C%20USA,structured-data,high,
Chicago Style Taco Shop,8.2,Phil ate the Tacos Dorados.,1238 S Highland Ave,Lombard,IL,41.8592219,-88.0128222,https://www.instagram.com/reel/C2Hy7gqLoVh/?igsh=MWJrZTI1cWR4OHU5OQ%3D%3D,https://www.google.com/maps/dir/?api=1&destination=1238%20S%20Highland%20Ave%2C%20Lombard%2C%20IL%2060148%2C%20USA,structured-data,high,
Zenwich,8.4,Phil ate the Spicy Garlic Shrimp Sandy.,416 N York St b,Elmhurst,IL,41.9105832,-87.94048839999999,https://www.instagram.com/reel/C2M8iDAr_Ze/?igsh=MXY5ZHJyeHNkbW96MQ%3D%3D,https://www.google.com/maps/dir/?api=1&destination=416%20N%20York%20St%20b%2C%20Elmhurst%2C%20IL%2060126%2C%20USA,structured-data,high,
The Slice Shop,8.1,Phil ate the Vodka Pizza Grandma Style.,928 W Belmont Ave,Chicago,IL,41.9400531,-87.6525764,https://www.instagram.com/reel/C2SGJlxLv5V/?igsh=MTFseGZ6bDl1ZndyMA%3D%3D,https://www.google.com/maps/dir/?api=1&destination=928%20W%20Belmont%20Ave%2C%20Chicago%2C%20IL%2060657%2C%20USA,structured-data,high,
Algonquin Sandwich Shop,7.7,Phil ate the Al Capone Sub.,105 Filip St,Algonquin,IL,42.1585233,-88.29670469999999,https://www.instagram.com/reel/C2Z0bnyrNLp/?igsh=dTlsaTBmbDQ5ZDZw,https://www.google.com/maps/dir/?api=1&destination=105%20Filip%20St%2C%20Algonquin%2C%20IL%2060102%2C%20USA,structured-data,high,
Tata's Pierogi,8,Phil ate the Polish Plate.,570 E Devon Ave,Elk Grove Village,IL,41.9930137,-87.980547,https://www.instagram.com/reel/C2e-AjjLsPh/?igsh=ODduNHRjejhmZXBq,https://www.google.com/maps/dir/?api=1&destination=570%20E%20Devon%20Ave%2C%20Elk%20Grove%20Village%2C%20IL%2060007%2C%20USA,structured-data,high,
Une Année Brewery,8.4,Phil ate the Chimichurri Steak Sandy.,6343 W Gross Point Rd,Niles,IL,42.0142899,-87.78518009999999,https://www.instagram.com/reel/C2kHnh3L_Ez/?igsh=dzN2N2doajhhdHU0,https://www.google.com/maps/dir/?api=1&destination=6343%20W%20Gross%20Point%20Rd%2C%20Niles%2C%20IL%2060714%2C%20USA,structured-data,high,
Sake Sushi,7.3,Phil ate the Sushi Lunch Special.,697 E Golf Rd,Schaumburg,IL,42.0493173,-88.0622459,https://www.instagram.com/reel/C2w_n55rlZv/?igsh=Nmo4c25vbHBhdWc2,https://www.google.com/maps/dir/?api=1&destination=697%20E%20Golf%20Rd%2C%20Schaumburg%2C%20IL%2060173%2C%20USA,structured-data,high,
Holy Wings,8.6,Phil ate the Tikka Masala Wings.,19 S Sutton Rd,Streamwood,IL,42.030478,-88.2009743,https://www.instagram.com/reel/C22JNO6rDJJ/?igsh=Y3Z3cTM4dHBpaWxn,https://www.google.com/maps/dir/?api=1&destination=19%20S%20Sutton%20Rd%2C%20Streamwood%2C%20IL%2060107%2C%20USA,structured-data,high,
Enzo's Pizza,8.2,Phil ate the Italian Beef Roll.,105 E N Ave,Villa Park,IL,41.90548769999999,-87.97580889999999,https://www.instagram.com/reel/C293nn0rqFj/?igsh=Y3BkczBmOGY3aGtk,https://www.google.com/maps/dir/?api=1&destination=105%20E%20N%20Ave%2C%20Villa%20Park%2C%20IL%2060181%2C%20USA,structured-data,high,
Budacki's Drive In,8.6,Phil ate the Korean Philly Cheesesteak Sandy.,4739 N Damen Ave,Chicago,IL,41.9681364,-87.67894439999999,https://www.instagram.com/reel/C3DF9jQrTW6/?igsh=bmhsbW11bzFzNXBj,https://www.google.com/maps/dir/?api=1&destination=4739%20N%20Damen%20Ave%2C%20Chicago%2C%20IL%2060625%2C%20USA,structured-data,high,
The Local Kitchen,8.1,Phil ate the Conant Culinary Burger.,1140 E Higgins Rd,Schaumburg,IL,42.0404044,-88.0514737,https://www.instagram.com/reel/C3IKm4rrIxn/?igsh=MXVzbHQ1eWN1dHRtZA%3D%3D,https://www.google.com/maps/dir/?api=1&destination=1140%20E%20Higgins%20Rd%2C%20Schaumburg%2C%20IL%2060173%2C%20USA,structured-data,high,
Pie Boss,8.9,Phil ate the Peppered Steak Pie.,1649 Montgomery Rd,Aurora,IL,41.73393360000001,-88.2743643,https://www.instagram.com/reel/C3P5ED0ruLg/?igsh=MXMxZWYwdWI5N2g1Zg%3D%3D,https://www.google.com/maps/dir/?api=1&destination=1649%20Montgomery%20Rd%2C%20Aurora%2C%20IL%2060504%2C%20USA,structured-data,high,
Bubby's Red Hots,8.4,Phil ate the Bubby's Special Sandy.,1026 E Higgins Rd,Elk Grove Village,IL,42.0271842,-87.9718772,https://www.instagram.com/reel/C3VCpobralo/?igsh=MWFtank2NmluYzU0OA%3D%3D,https://www.google.com/maps/dir/?api=1&destination=1026%20E%20Higgins%20Rd%2C%20Elk%20Grove%20Village%2C%20IL%2060007%2C%20USA,structured-data,high,Present on the current site map but not in the provided known list.
Bill's Place,8.2,Phil ate the Broasted Chicken.,1146 N Maple Ave,La Grange Park,IL,41.836534,-87.8521747,https://www.instagram.com/reel/C3aMM7vLx2c/?igsh=dHZuNzZ1empxejNo,https://www.google.com/maps/dir/?api=1&destination=1146%20N%20Maple%20Ave%2C%20La%20Grange%20Park%2C%20IL%2060526%2C%20USA,structured-data,high,
Wilma's Famous BBQ,8.1,Phil ate the BBQ Ribs.,17 N Wabash Ave fl 2,Chicago,IL,41.8826709,-87.6258493,https://www.instagram.com/reel/C3h8tWfuDUg/?igsh=MW9laGg1ZTd5OWVleA%3D%3D,https://www.google.com/maps/dir/?api=1&destination=17%20N%20Wabash%20Ave%20fl%202%2C%20Chicago%2C%20IL%2060602%2C%20USA,structured-data,high,
Rosie's Sidekick Sandwich Shop,8.2,Phil ate the OG Muffuletta.,1750 E Golf Rd,Schaumburg,IL,42.05260330000001,-88.0356663,https://www.instagram.com/reel/C3nETkpuZKL/?igsh=OWpsdW15b2tmdnY3,https://www.google.com/maps/dir/?api=1&destination=1750%20E%20Golf%20Rd%2C%20Schaumburg%2C%20IL%2060173%2C%20USA,structured-data,high,
Primo Pizza,7.8,"Phil ate the Red, White & green Pizza.",630 S Northwest Hwy,Barrington,IL,42.1503335,-88.1259166,https://www.instagram.com/reel/C3sNx4Yrdip/?igsh=YjRqcng2ODlnMHhp,https://www.google.com/maps/dir/?api=1&destination=630%20S%20Northwest%20Hwy%2C%20Barrington%2C%20IL%2060010%2C%20USA,structured-data,high,
Cocina Madre,7.9,Phil ate the Quesabirria tacos.,1965 S Bridge St,Yorkville,IL,41.6208736,-88.4494922,https://www.instagram.com/reel/C3z8NqmLF3B/?igsh=Nzd5OXNmZnhxZm9l,https://www.google.com/maps/dir/?api=1&destination=1965%20S%20Bridge%20St%2C%20Yorkville%2C%20IL%2060560%2C%20USA,structured-data,high,Present on the current site map but not in the provided known list.
Sukho Thai Cuisine,8.2,Phil ate the Drunken Noodles w/ Shrimp.,1933 S Plum Grove Rd,Palatine,IL,42.089664,-88.04472299999999,https://www.instagram.com/reel/C35Fz99LSzu/?igsh=Y3ZjYXVsMzk3cXFz,https://www.google.com/maps/dir/?api=1&destination=1933%20S%20Plum%20Grove%20Rd%2C%20Palatine%2C%20IL%2060067%2C%20USA,structured-data,high,
Rep's Place,7.6,Phil ate the Peanut Butter Bacon Burger.,3200 Kirchoff Rd,Rolling Meadows,IL,42.07913,-88.019048,https://www.instagram.com/reel/C3-PV2kLHdr/?igsh=b3huNmtndWR4OXFz,https://www.google.com/maps/dir/?api=1&destination=3200%20Kirchoff%20Rd%2C%20Rolling%20Meadows%2C%20IL%2060008%2C%20USA,structured-data,high,
Mojo's East Coast Eats,7.9,Phil ate the Philly Cheesesteak Sandy.,2758 Maple Ave,Downers Grove,IL,41.7859764,-88.0515329,https://www.instagram.com/reel/C4F9vF5rY0S/?igsh=MW9jbGtoM2Jxa2YwZw%3D%3D,https://www.google.com/maps/dir/?api=1&destination=2758%20Maple%20Ave%2C%20Downers%20Grove%2C%20IL%2060515%2C%20USA,structured-data,high,
Garifuna Flava,8.5,Phil ate a Jerk Chicken plate.,2518 W 63rd St,Chicago,IL,41.7794495,-87.68688829999999,https://www.instagram.com/reel/C4LHXDFLjtX/?igsh=eGo2cjh2Z3YyNWgz,https://www.google.com/maps/dir/?api=1&destination=2518%20W%2063rd%20St%2C%20Chicago%2C%20IL%2060629%2C%20USA,structured-data,high,
Berliner Kebap,8.1,Phil ate the Kebap Sandy.,696 S Barrington Rd,Streamwood,IL,42.0193868,-88.1453982,https://www.instagram.com/reel/C4QRDe4rk0_/?igsh=MWl1Mm43Ym5naHl5Mg%3D%3D,https://www.google.com/maps/dir/?api=1&destination=696%20S%20Barrington%20Rd%2C%20Streamwood%2C%20IL%2060107%2C%20USA,structured-data,high,
Pholicious,7.9,Phil ate the Banh Mi Sandy w/ short rib.,369 W Army Trail Rd Ste 24,Bloomingdale,IL,41.9400184,-88.1120085,https://www.instagram.com/reel/C4X4gicuL0A/?igsh=NjRnZmxoaW96dTY4,https://www.google.com/maps/dir/?api=1&destination=369%20W%20Army%20Trail%20Rd%20Ste%2024%2C%20Bloomingdale%2C%20IL%2060108%2C%20USA,structured-data,high,
(POP UP) Mcbrennan's Gourmet Burger Shack,9.2,Phil ate the House Burger w/ Bacon,"Park Ridge, IL",Chicago,IL,42.0111412,-87.84061919999999,https://www.instagram.com/reel/C4dCBDVr9mK/?igsh=dmZxMzRqYzV4MDh4,https://www.google.com/maps/dir/?api=1&destination=Park%20Ridge%2C%20IL%2C%20USA,structured-data,low,"The live map did not expose a full street-level address for this place, so the location should be reviewed before treating it as exact. Present on the current site map but not in the provided known list."
Doore Chicken,8.7,Phil ate the Supreme Korean Fried Chicken.,8901 N Milwaukee Ave,Niles,IL,42.0428491,-87.82741709999999,https://www.instagram.com/reel/C4iLxDeL9DA/?igsh=eGk2MThqMTVtbnI4,https://www.google.com/maps/dir/?api=1&destination=8901%20N%20Milwaukee%20Ave%2C%20Niles%2C%20IL%2060714%2C%20USA,structured-data,high,
Gringo and Blondie,8.1,Phil ate the Birria Pizza.,7514 W North Ave,Elmwood Park,IL,41.9090126,-87.8140806,https://www.instagram.com/reel/C4p6HCQrJO0/?igsh=MTR5eWd1cW53djZhaQ%3D%3D,https://www.google.com/maps/dir/?api=1&destination=7514%20W%20North%20Ave%2C%20Elmwood%20Park%2C%20IL%2060707%2C%20USA,structured-data,high,
Mr. Kabab,8.3,Phil ate the Gyro sandy (well done),1962 W Peterson Ave,Chicago,IL,41.991003,-87.679495,https://www.instagram.com/reel/C4vDu4jrrc1/?igsh=MTN5b2oxeXhyNmxvbg%3D%3D,https://www.google.com/maps/dir/?api=1&destination=1962%20W%20Peterson%20Ave%2C%20Chicago%2C%20IL%2060660%2C%20USA,structured-data,high,
The Dogfather,7.6,Phil ate the Garlic Cheesy Beef.,957 Illinois Rte 59,Bartlett,IL,41.9723355,-88.2061317,https://www.instagram.com/reel/C40NXJ9LBQn/?igsh=MWk5Nmo4YnNhY3FmOQ%3D%3D,https://www.google.com/maps/dir/?api=1&destination=957%20Illinois%20Rte%2059%2C%20Bartlett%2C%20IL%2060103%2C%20USA,structured-data,high,
Joy Teriyaki,8,Phil ate the Spicy Chicken Teriyaki plate.,1145 N Roselle Rd,Hoffman Estates,IL,42.0483837,-88.0785655,https://www.instagram.com/reel/C477t0erJPp/?igsh=MTg0d3hmZ2M1eTdpZw%3D%3D,https://www.google.com/maps/dir/?api=1&destination=1145%20N%20Roselle%20Rd%2C%20Hoffman%20Estates%2C%20IL%2060169%2C%20USA,structured-data,high,
Veloce Pizze,7.7,Phil ate the Turkey Sandwich.,1450 Park Ave W e,Highland Park,IL,42.1886268,-87.8263837,https://www.instagram.com/reel/C5BFTsqrb2D/?igsh=MWY4bW5zZWYxNW9veA%3D%3D,https://www.google.com/maps/dir/?api=1&destination=1450%20Park%20Ave%20W%20e%2C%20Highland%20Park%2C%20IL%2060035%2C%20USA,structured-data,high,
Rep's Burgers,8.2,Phil ate the Orignal Double Smash Burger (plain),139 N Northwest Hwy,Palatine,IL,42.1132162,-88.0334838,https://www.instagram.com/reel/C5GO6KGrJ3F/?igsh=eTg0dXBwZ2Rvbm1y,https://www.google.com/maps/dir/?api=1&destination=139%20N%20Northwest%20Hwy%2C%20Palatine%2C%20IL%2060067%2C%20USA,structured-data,high,
JT's Genuine Sandwich Shop,7.8,Phil ate the Breaded Pork Tenderloin Sandy.,3970 N Elston Ave,Chicago,IL,41.9531568,-87.7187423,https://www.instagram.com/reel/C5TG2u5LgFB/?igsh=aThlbjY2NjFqMGJp,https://www.google.com/maps/dir/?api=1&destination=3970%20N%20Elston%20Ave%2C%20Chicago%2C%20IL%2060618%2C%20USA,structured-data,high,
Bacowka,8.5,Phil ate the Highlander Potato Pancakes.,1120 S Roselle Rd,Schaumburg,IL,42.0070437,-88.0823552,https://www.instagram.com/reel/C5YQhuuL77z/?igsh=MXM2a2J3NTRkNHZvcw%3D%3D,https://www.google.com/maps/dir/?api=1&destination=1120%20S%20Roselle%20Rd%2C%20Schaumburg%2C%20IL%2060193%2C%20USA,structured-data,high,
County Farm Bagels,7.6,"Phil ate the Bacon, Pepper Egg, and Cheese on a Cheddar Oregano bagel w/ Bacon Cheddar Cream Cheese.",118 N Main St,Wheaton,IL,41.8654747,-88.1068087,https://www.instagram.com/reel/C5f-3RqrDGB/?igsh=MXMyc3NiZ3Z2eW95dQ%3D%3D,https://www.google.com/maps/dir/?api=1&destination=118%20N%20Main%20St%2C%20Wheaton%2C%20IL%2060187%2C%20USA,structured-data,high,
Buffalo Joe's,8,Phil ate the Buffalo Wings.,812 Clark St,Evanston,IL,42.049785,-87.68251289999999,https://www.instagram.com/reel/C5lIqHTr5le/?igsh=MWR3NW5lMjRvaXByNA%3D%3D,https://www.google.com/maps/dir/?api=1&destination=812%20Clark%20St%2C%20Evanston%2C%20IL%2060201%2C%20USA,structured-data,high,
All Ways Catering & Deli,8.1,Phil ate the BLT Sandy. (Fridays Only),110 Turner Ave,Elk Grove Village,IL,41.99359630000001,-88.0004719,https://www.instagram.com/reel/C5qSF3OL8Wv/?igsh=cXpoazAxaGgxdGh0,https://www.google.com/maps/dir/?api=1&destination=110%20Turner%20Ave%2C%20Elk%20Grove%20Village%2C%20IL%2060007%2C%20USA,structured-data,high,
Tacos Jerez,7.2,Phil ate the Quesabirria Tacos.,1410 Golf Rd,Rolling Meadows,IL,42.0517855,-87.9961941,https://www.instagram.com/reel/C5yAZssrFt8/?igsh=MXN5azJiczhpNGU3aw%3D%3D,https://www.google.com/maps/dir/?api=1&destination=1410%20Golf%20Rd%2C%20Rolling%20Meadows%2C%20IL%2060008%2C%20USA,structured-data,high,
Mughal The Biryani House,8,Phil ate the Tikka Masala.,510 W Touhy Ave,Park Ridge,IL,42.0113898,-87.8304529,https://www.instagram.com/reel/C53KE4CLtIg/?igsh=c2x0OGQ2cmxpYm5m,https://www.google.com/maps/dir/?api=1&destination=510%20W%20Touhy%20Ave%2C%20Park%20Ridge%2C%20IL%2060068%2C%20USA,structured-data,high,
GT's Fast Food,8.4,"Phil made and ate a custom burger, now named ""The Goode Burger""",5016 N Pulaski Rd,Chicago,IL,41.972321,-87.72857429999999,https://www.instagram.com/reel/C58TmsHLTUL/?igsh=c251NzJ0ZjNweXVj,https://www.google.com/maps/dir/?api=1&destination=5016%20N%20Pulaski%20Rd%2C%20Chicago%2C%20IL%2060630%2C%20USA,structured-data,high,
Avanti Caffe,8.3,Phil ate the Diavolo Tostino sandwich.,1900 Elmhurst Rd,Mt Prospect,IL,42.0277927,-87.94108279999999,https://www.instagram.com/reel/C6EB_NXrLmz/?igsh=MW0wajZuaDJvNHhpOA%3D%3D,https://www.google.com/maps/dir/?api=1&destination=1900%20Elmhurst%20Rd%2C%20Mt%20Prospect%2C%20IL%2060056%2C%20USA,structured-data,high,Present on the current site map but not in the provided known list.
Bruno's Philly Cheesesteaks,8.5,Phil ate the Southern Philly Cheesesteak.,17 S Lincolnway St,North Aurora,IL,41.8050179,-88.32646199999999,https://www.instagram.com/reel/C6JLjVjrIgb/?igsh=ZzhybHZlMmdxZzNj,https://www.google.com/maps/dir/?api=1&destination=17%20S%20Lincolnway%20St%2C%20North%20Aurora%2C%20IL%2060542%2C%20USA,structured-data,high,Present on the current site map but not in the provided known list.
Joe Donut,8.7,Phil ate the Fun Guy breakfast sandwich.,6969 N Milwaukee Ave,Niles,IL,42.0086816,-87.79796669999999,https://www.instagram.com/reel/C6OVJA9rYFR/?igsh=OXhzdWVxaG9tOGNs,https://www.google.com/maps/dir/?api=1&destination=6969%20N%20Milwaukee%20Ave%2C%20Niles%2C%20IL%2060714%2C%20USA,structured-data,high,
Epic Deli,8.8,The John Bender,2616 Schaid Ct,McHenry,IL,42.3659416,-88.2686633,https://www.instagram.com/reel/C6bNAsXr5IU/?igsh=ZWM0M3JrZzltcjQx,https://www.google.com/maps/dir/?api=1&destination=2616%20Schaid%20Ct%2C%20McHenry%2C%20IL%2060051%2C%20USA,structured-data,high,
Punky's Pizza,7.7,Chicken Caesar Wrap on pizza crust,2600 S Wallace St,Chicago,IL,41.8452698,-87.6418331,https://www.instagram.com/reel/C6gWtPrLn8b/?igsh=MWRiY250aWd1bmI4bQ%3D%3D,https://www.google.com/maps/dir/?api=1&destination=2600%20S%20Wallace%20St%2C%20Chicago%2C%20IL%2060616%2C%20USA,structured-data,high,
The Lucky Monk,8.5,Buffalo wings and Sweet Potato fries,105 Hollywood Blvd,Barrington,IL,42.0705839,-88.14554009999999,https://www.instagram.com/reel/C6oFGOdrOyE/?igsh=ZDJxeGg4aXVvdWRl,https://www.google.com/maps/dir/?api=1&destination=105%20Hollywood%20Blvd%2C%20Barrington%2C%20IL%2060010%2C%20USA,structured-data,high,
Uncle Jerry's Pizza Company,8.2,Sweet Sting Pizza,133 W Main St,Cary,IL,42.2084294,-88.2425423,https://www.instagram.com/reel/C6tOu8HLl3e/?igsh=MTJxcTV2OWMzNmMzNg%3D%3D,https://www.google.com/maps/dir/?api=1&destination=133%20W%20Main%20St%2C%20Cary%2C%20IL%2060013%2C%20USA,structured-data,high,
The Budlong,8,Hot Chicken Sandwich,"Food Court, 100 Oakbrook Center Unit 539",Oak Brook,IL,41.85218829999999,-87.9520271,https://www.instagram.com/reel/C6yYTrWLx1w/?igsh=MWl5MG41emppanJ5Zg%3D%3D,https://www.google.com/maps/dir/?api=1&destination=Food%20Court%2C%20100%20Oakbrook%20Center%20Unit%20539%2C%20Oak%20Brook%2C%20IL%2060523%2C%20USA,structured-data,high,
Frannie's Beef,8.5,Italian Beef,4304 River Rd,Schiller Park,IL,41.9573409,-87.8610561,https://www.instagram.com/reel/C66GoYXrjFh/?igsh=YTdpaHJ5d3BiOTZ2,https://www.google.com/maps/dir/?api=1&destination=4304%20River%20Rd%2C%20Schiller%20Park%2C%20IL%2060176%2C%20USA,structured-data,high,
Marciana's Kitchen,8.6,Sisig Plate,332 E St Charles Rd,Villa Park,IL,41.8903421,-87.9705764,https://www.instagram.com/reel/C6_QPV8rYXK/?igsh=MWw2dHM5N29rbWc4Yw%3D%3D,https://www.google.com/maps/dir/?api=1&destination=332%20E%20St%20Charles%20Rd%2C%20Villa%20Park%2C%20IL%2060181%2C%20USA,structured-data,high,
Home Of The Hoagy,9,Steak Sandwich,1316 W 111th St,Chicago,IL,41.6924182,-87.65535779999999,https://www.instagram.com/reel/C7EZ20KvNjB/?igsh=MW5naHh0cXZpODJ4OA%3D%3D,https://www.google.com/maps/dir/?api=1&destination=1316%20W%20111th%20St%2C%20Chicago%2C%20IL%2060643%2C%20USA,structured-data,high,Present on the current site map but not in the provided known list.
Deane's Deli,7.8,Roast Beef Sandwich,500 S 3rd St #141,Geneva,IL,41.8822688,-88.30940749999999,https://www.instagram.com/reel/C7MICWerlXj/?igsh=eXJvMW9ncjFobXVx,https://www.google.com/maps/dir/?api=1&destination=500%20S%203rd%20St%20%23141%2C%20Geneva%2C%20IL%2060134%2C%20USA,structured-data,high,
Volo Quality Meats,8.8,The Dirty Talk Sandwich,27090 Volo Village Rd,Round Lake,IL,42.3247927,-88.16135369999999,https://www.instagram.com/reel/C7RR2COuq9l/?igsh=MXE3dTdibXoydjhkaA%3D%3D,https://www.google.com/maps/dir/?api=1&destination=27090%20Volo%20Village%20Rd%2C%20Round%20Lake%2C%20IL%2060073%2C%20USA,structured-data,high,
Jook Sing,9.1,Jook Sing Burger,1329 W Chicago Ave,Chicago,IL,41.8959464,-87.6605615,https://www.instagram.com/reel/C7WbdF1OESe/?igsh=NHc3YmFxamlpdGRs,https://www.google.com/maps/dir/?api=1&destination=1329%20W%20Chicago%20Ave%2C%20Chicago%2C%20IL%2060642%2C%20USA,structured-data,high,
Kaufman's Deli,8.5,New Jersey Bypass Sandwich,4905 Dempster St,Skokie,IL,42.0404778,-87.7497126,https://www.instagram.com/reel/C7eJw6nuOc0/?igsh=MXV0em9qMGxqMXh1MQ%3D%3D,https://www.google.com/maps/dir/?api=1&destination=4905%20Dempster%20St%2C%20Skokie%2C%20IL%2060077%2C%20USA,structured-data,high,
Sabor De MI Tierra,8.8,Quesabirria Tacos,340 W Lake St,Addison,IL,41.93640449999999,-87.9977698,https://www.instagram.com/reel/C7jTWsHOlGR/?igsh=MXV6cWF2cXZzMnkwcg%3D%3D,https://www.google.com/maps/dir/?api=1&destination=340%20W%20Lake%20St%2C%20Addison%2C%20IL%2060101%2C%20USA,structured-data,high,
Tony and Tina's Deli,8.4,Tony's Italian Sub,8133 S Cass Ave,Darien,IL,41.7401882,-87.9719348,https://www.instagram.com/reel/C7odB5xO98s/?igsh=c3BrZnE2cTYxY3Y1,https://www.google.com/maps/dir/?api=1&destination=8133%20S%20Cass%20Ave%2C%20Darien%2C%20IL%2060561%2C%20USA,structured-data,high,
La Poblanita,8,Cemita Especial,16 N Bartlett Rd,Streamwood,IL,42.0328737,-88.1803334,https://www.instagram.com/reel/C7wLVecOBbk/?igsh=dGFjYzRnZmIyZjJw,https://www.google.com/maps/dir/?api=1&destination=16%20N%20Bartlett%20Rd%2C%20Streamwood%2C%20IL%2060107%2C%20USA,structured-data,high,
Sarkis Cafe,7.8,The Disaster Sandwich,2632 Gross Point Rd,Evanston,IL,42.0657048,-87.7273239,https://www.instagram.com/reel/C71Uzt1O5UL/?igsh=ZWYxc3Bla2Y3c3h3,https://www.google.com/maps/dir/?api=1&destination=2632%20Gross%20Point%20Rd%2C%20Evanston%2C%20IL%2060201%2C%20USA,structured-data,high,
Doner 97,8.3,Doner Sandwich,2435 N Clark St,Chicago,IL,41.9266099,-87.6408828,https://www.instagram.com/reel/C76ehTqOCSq/?igsh=MXhwaHJlMXVxMjJ4ZA%3D%3D,https://www.google.com/maps/dir/?api=1&destination=2435%20N%20Clark%20St%2C%20Chicago%2C%20IL%2060614%2C%20USA,structured-data,high,
Time Out West Sports Pub,8.3,Hot Wings,1130 E Lake St,Hanover Park,IL,41.9769792,-88.1350509,https://www.instagram.com/reel/C8CM7JAOM3n/?igsh=MWQwYjZ6azAwa3BuaA%3D%3D,https://www.google.com/maps/dir/?api=1&destination=1130%20E%20Lake%20St%2C%20Hanover%20Park%2C%20IL%2060133%2C%20USA,structured-data,high,
Shawarma Inn,7.4,Sirloin Beef Shawarma,715 E Devon Ave,Park Ridge,IL,41.9961441,-87.8369101,https://www.instagram.com/reel/C8HWi0iOpQw/?igsh=N3lndDg5NXdwbXI3,https://www.google.com/maps/dir/?api=1&destination=715%20E%20Devon%20Ave%2C%20Park%20Ridge%2C%20IL%2060068%2C%20USA,structured-data,high,
Noodle Deli,8.9,Spicy Fish Casserole,2 Golf Center,Hoffman Estates,IL,42.0487581,-88.08311069999999,https://www.instagram.com/reel/C8Mf5v8O8cC/?igsh=MW1ybDN4MWJnMWd3Yw%3D%3D,https://www.google.com/maps/dir/?api=1&destination=2%20Golf%20Center%2C%20Hoffman%20Estates%2C%20IL%2060169%2C%20USA,structured-data,high,
Coaches Corner,7.4,Italian Beef,152 Biesterfield Rd,Elk Grove Village,IL,42.0044681,-88.00829159999999,https://www.instagram.com/reel/C8UObW8OdWg/?igsh=MTBwZmxocTlsNDhxdw%3D%3D,https://www.google.com/maps/dir/?api=1&destination=152%20Biesterfield%20Rd%2C%20Elk%20Grove%20Village%2C%20IL%2060007%2C%20USA,structured-data,high,
Ella's Italian Pub,8.6,Nonna's Sunday Pie,100 N York St,Elmhurst,IL,41.8999931,-87.940156,https://www.instagram.com/reel/C8ZYIxPudA4/?igsh=MTdyZWoxaWZjYjZyeQ%3D%3D,https://www.google.com/maps/dir/?api=1&destination=100%20N%20York%20St%2C%20Elmhurst%2C%20IL%2060126%2C%20USA,structured-data,high,
El Rincon De Fabio,9,The Queen Arepa,1002 W Argyle St,Chicago,IL,41.9734132,-87.6552112,https://www.instagram.com/reel/C8ehiQ8ufSZ/?igsh=MXV6a2txZDlyMGVpdw%3D%3D,https://www.google.com/maps/dir/?api=1&destination=1002%20W%20Argyle%20St%2C%20Chicago%2C%20IL%2060640%2C%20USA,structured-data,high,
Charcoal Flame,8.2,Greek Style Gyro,6800 Dempster St,Morton Grove,IL,42.041107,-87.7960238,https://www.instagram.com/reel/C8mP2oFObFz/?igsh=Z3ZmeXNoaWswOG9n,https://www.google.com/maps/dir/?api=1&destination=6800%20Dempster%20St%2C%20Morton%20Grove%2C%20IL%2060053%2C%20USA,structured-data,high,
Hot Chi,7.4,Hot Honey Butter Chicken Sandwich,100 W 87th St STE B4,Chicago,IL,41.7365184,-87.6270117,https://www.instagram.com/reel/C8rZkNWO95Q/?igsh=aWJpcGJ6ZmxxbGxq,https://www.google.com/maps/dir/?api=1&destination=100%20W%2087th%20St%20STE%20B4%2C%20Chicago%2C%20IL%2060620%2C%20USA,structured-data,high,
Top Arepa,8.3,Picosa Burger,951 W Wise Rd,Schaumburg,IL,42.0036394,-88.10323129999999,https://www.instagram.com/reel/C8wjNXSuWlr/?igsh=MWxrY254czcxaDUwdg%3D%3D,https://www.google.com/maps/dir/?api=1&destination=951%20W%20Wise%20Rd%2C%20Schaumburg%2C%20IL%2060193%2C%20USA,structured-data,high,
Monkey King Jian Bing,7.7,Fried Shrimp Jian Bing,3411 Dempster St,Skokie,IL,42.0405913,-87.71397119999999,https://www.instagram.com/reel/C84Rf8KOqjb/?igsh=bGt2a2tjOXRmaHRq,https://www.google.com/maps/dir/?api=1&destination=3411%20Dempster%20St%2C%20Skokie%2C%20IL%2060076%2C%20USA,structured-data,high,
Tempesta Market,8.4,The Dante Italian Sub,1372 W Grand Ave,Chicago,IL,41.8912472,-87.66180899999999,https://www.instagram.com/reel/C89axMGu3vj/?igsh=MWw3aGFsc24xaXM3aA%3D%3D,https://www.google.com/maps/dir/?api=1&destination=1372%20W%20Grand%20Ave%2C%20Chicago%2C%20IL%2060642%2C%20USA,structured-data,high,
Balkan Taste,8.4,Serbian Stuffed Burger,2354 Elmhurst Rd,Mt Prospect,IL,42.0231979,-87.9417332,https://www.instagram.com/reel/C9CkwirOI5Z/?igsh=dWttOXQycHYzNnlt,https://www.google.com/maps/dir/?api=1&destination=2354%20Elmhurst%20Rd%2C%20Mt%20Prospect%2C%20IL%2060056%2C%20USA,structured-data,high,Present on the current site map but not in the provided known list.
Fry N' Wings,8.6,Salted Egg Wings,369 Army Trail Rd Unit 19,Bloomingdale,IL,41.94007240000001,-88.11273969999999,https://www.instagram.com/reel/C9KTK6Cukcq/?igsh=MTM0MW11OXE2dThzMg%3D%3D,https://www.google.com/maps/dir/?api=1&destination=369%20Army%20Trail%20Rd%20Unit%2019%2C%20Bloomingdale%2C%20IL%2060108%2C%20USA,structured-data,high,
Delishka Sandwiches,8.3,Duck Duck Goose Sandwich,1819 Waukegan Rd,Glenview,IL,42.0876565,-87.7974089,https://www.instagram.com/reel/C9Pc5MSOlyU/?igsh=MWc5bDMzejkxajU5YQ%3D%3D,https://www.google.com/maps/dir/?api=1&destination=1819%20Waukegan%20Rd%2C%20Glenview%2C%20IL%2060025%2C%20USA,structured-data,high,
Taqueria Sebastian,7.6,Quesabirria Tacos,1550 Mannheim Rd Unit # C,Stone Park,IL,41.8999879,-87.8840475,https://www.instagram.com/reel/C9UmMNKuDt1/?igsh=MnBoZHNucXkycG05,https://www.google.com/maps/dir/?api=1&destination=1550%20Mannheim%20Rd%20Unit%20%23%20C%2C%20Stone%20Park%2C%20IL%2060165%2C%20USA,structured-data,high,
Armo Grill,8,Combo Plate,516 N Milwaukee Ave,Wheeling,IL,42.1478362,-87.91346469999999,https://www.instagram.com/reel/C9cUmRSOdvP/?igsh=MTZraml3MnV1aGxkOQ%3D%3D,https://www.google.com/maps/dir/?api=1&destination=516%20N%20Milwaukee%20Ave%2C%20Wheeling%2C%20IL%2060090%2C%20USA,structured-data,high,
Five Square Pizza,8.6,Spacca Pizza,1332 N Halsted St,Chicago,IL,41.906152,-87.64844140000001,https://www.instagram.com/reel/C9heQ2dOlZA/?igsh=MXQ1Z3NpYXR2dDBydw%3D%3D,https://www.google.com/maps/dir/?api=1&destination=1332%20N%20Halsted%20St%2C%20Chicago%2C%20IL%2060642%2C%20USA,structured-data,high,
Italia Imports,7.9,Breaded Steak Sandwich,11351 W 143rd St,Orland Park,IL,41.6289129,-87.8968226,https://www.instagram.com/reel/C9mtIcOOHFg/?igsh=d2NsNWV6a3R1Zmxz,https://www.google.com/maps/dir/?api=1&destination=11351%20W%20143rd%20St%2C%20Orland%20Park%2C%20IL%2060467%2C%20USA,structured-data,high,
Phat Phat,8,Pork Soup Dumplings,17 S Roselle Rd,Schaumburg,IL,42.0264332,-88.0796507,https://www.instagram.com/reel/C9uWe51udXw/?igsh=OTNzb2Y3bWZ0MXlv,https://www.google.com/maps/dir/?api=1&destination=17%20S%20Roselle%20Rd%2C%20Schaumburg%2C%20IL%2060193%2C%20USA,structured-data,high,
Mel's California Hoagies,7.9,The Maargaret Hoagie,3950 Vollmer Rd,Flossmoor,IL,41.5284231,-87.71218119999999,https://www.instagram.com/reel/C9zf5MMOjMb/?igsh=MXV0b3NraDFmZGk1YQ%3D%3D,https://www.google.com/maps/dir/?api=1&destination=3950%20Vollmer%20Rd%2C%20Flossmoor%2C%20IL%2060422%2C%20USA,structured-data,high,Present on the current site map but not in the provided known list.
Southern Belle's,8.3,Porky Smith Breakfast Sandwich,152 S Western Ave,Carpentersville,IL,42.1055483,-88.290171,https://www.instagram.com/reel/C94pc_1uVAr/?igsh=cGN0ZHJvN2ZlaW9h,https://www.google.com/maps/dir/?api=1&destination=152%20S%20Western%20Ave%2C%20Carpentersville%2C%20IL%2060110%2C%20USA,structured-data,high,
Tiger Chicken,7.6,Korean Fried Chicken Sandwich,7452 Barrington Rd,Hanover Park,IL,42.0068136,-88.1452839,https://www.instagram.com/reel/C-AX55LuMOB/?igsh=ZzVkemdsb252ZnZo,https://www.google.com/maps/dir/?api=1&destination=7452%20Barrington%20Rd%2C%20Hanover%20Park%2C%20IL%2060133%2C%20USA,structured-data,high,
Mother Cluckers Chicken,7.9,Fried Chicken,36725 US-41 Ste B,Gurnee,IL,42.3958682,-87.9277759,https://www.instagram.com/reel/C-FhbYlOPjp/?igsh=MWNjNGJ5ZTAxY2VjNw%3D%3D,https://www.google.com/maps/dir/?api=1&destination=36725%20US-41%20Ste%20B%2C%20Gurnee%2C%20IL%2060031%2C%20USA,structured-data,high,
Forza Meats,8.4,The Spacone Italian Sub,1811 Glenview Rd,Glenview,IL,42.0726265,-87.8029775,https://www.instagram.com/reel/C-Kq-jQOmSv/?igsh=eTg2b3d5dW0xYzV4,https://www.google.com/maps/dir/?api=1&destination=1811%20Glenview%20Rd%2C%20Glenview%2C%20IL%2060025%2C%20USA,structured-data,high,
The Burger Local,8.1,Short Rib Burger,577 S 3rd St #102,Geneva,IL,41.882003,-88.3090158,https://www.instagram.com/reel/C-SZffAO5dH/?igsh=MWN1NG9zcGd4aW93MA%3D%3D,https://www.google.com/maps/dir/?api=1&destination=577%20S%203rd%20St%20%23102%2C%20Geneva%2C%20IL%2060134%2C%20USA,structured-data,high,
Tasty Polish Food,7.8,Zapiekanka,3104 N Central Ave,Chicago,IL,41.9369757,-87.76686819999999,https://www.instagram.com/reel/C-XjFF6Oc9j/?igsh=MThnaGNtdGZ1NzAxcA%3D%3D,https://www.google.com/maps/dir/?api=1&destination=3104%20N%20Central%20Ave%2C%20Chicago%2C%20IL%2060634%2C%20USA,structured-data,high,
Barnaby's of Northbrook,8.1,Sausage & Bacon Pizza,960 Skokie Blvd,Northbrook,IL,42.1348569,-87.7902567,https://www.instagram.com/reel/C-csnVuu6CW/?igsh=MWN0eGIzZ3A2ZXB3MA%3D%3D,https://www.google.com/maps/dir/?api=1&destination=960%20Skokie%20Blvd%2C%20Northbrook%2C%20IL%2060062%2C%20USA,structured-data,high,
Miskatonic Brewery,8,Tocino Pork Belly Sandwich,47 E Chicago Ave #120,Naperville,IL,41.7717596,-88.1473171,https://www.instagram.com/reel/C-ka8zIullb/?igsh=MW9iNnFtcHpjeWFleA%3D%3D,https://www.google.com/maps/dir/?api=1&destination=47%20E%20Chicago%20Ave%20%23120%2C%20Naperville%2C%20IL%2060540%2C%20USA,structured-data,high,
Asti Deli,8.2,Italian on Focassia Bread w/ Prosciutto,1410 Irving Park Rd,Bensenville,IL,41.9607248,-87.9638623,https://www.instagram.com/reel/C-pkaZVukXe/?igsh=eWFpZHE1OG13NzR5,https://www.google.com/maps/dir/?api=1&destination=1410%20Irving%20Park%20Rd%2C%20Bensenville%2C%20IL%2060106%2C%20USA,structured-data,high,
Flippin Flavors,9,Philly Cheesesteak Sandwich,1848 W 95th St,Chicago,IL,41.7213351,-87.6693732,https://www.instagram.com/reel/C-uuinTuDwm/?igsh=MWhvajhkdzR4MHFkdA%3D%3D,https://www.google.com/maps/dir/?api=1&destination=1848%20W%2095th%20St%2C%20Chicago%2C%20IL%2060643%2C%20USA,structured-data,high,
Crazy Tortas,8.2,Birria Torta,1712 Ogden Ave,Lisle,IL,41.8007465,-88.08583980000002,https://www.instagram.com/reel/C-2cdvwult_/?igsh=YWFtODI4ZGoyNWhv,https://www.google.com/maps/dir/?api=1&destination=1712%20Ogden%20Ave%2C%20Lisle%2C%20IL%2060532%2C%20USA,structured-data,high,
Ukranian Dishes,7.7,Cherburek,2314 Hassell Rd,Hoffman Estates,IL,42.0622984,-88.13516969999999,https://www.instagram.com/reel/C-7mFr6Ov1-/?igsh=aGY3eGtib2gzNjd2,https://www.google.com/maps/dir/?api=1&destination=2314%20Hassell%20Rd%2C%20Hoffman%20Estates%2C%20IL%2060169%2C%20USA,structured-data,high,
Sonny's Express,7.9,Italian Beef,141 Vine Ave,Park Ridge,IL,42.0090158,-87.83024990000001,https://www.instagram.com/reel/C_AvvgLuQYV/?igsh=MXJ1NGI2aXBsaXp5Zw%3D%3D,https://www.google.com/maps/dir/?api=1&destination=141%20Vine%20Ave%2C%20Park%20Ridge%2C%20IL%2060068%2C%20USA,structured-data,high,Present on the current site map but not in the provided known list.
Sando Street,8.2,Pork Tonkatsu Sando,1547 N Ashland Ave,Chicago,IL,41.9101924,-87.6674082,https://www.instagram.com/reel/C_IeGZUONj5/?igsh=MTBnZDk0b3N4NTZtNQ%3D%3D,https://www.google.com/maps/dir/?api=1&destination=1547%20N%20Ashland%20Ave%2C%20Chicago%2C%20IL%2060622%2C%20USA,structured-data,high,
Wild Wings and Slots,8,Korean bbq Wings,10446 W Cermak Rd,Westchester,IL,41.8489109,-87.8836257,https://www.instagram.com/reel/C_NnwuBOQrw/?igsh=MXg1aGhsZ3Uyczl0Mw%3D%3D,https://www.google.com/maps/dir/?api=1&destination=10446%20W%20Cermak%20Rd%2C%20Westchester%2C%20IL%2060154%2C%20USA,structured-data,high,
The Original Island Shrimp House,8.8,Lobster Roll & Shrimp,12902 LaGrange Rd,Palos Park,IL,41.6554577,-87.85486039999999,https://www.instagram.com/reel/C_SxRm0OKRZ/?igsh=MWxudndhMGowYWFzZQ%3D%3D,https://www.google.com/maps/dir/?api=1&destination=12902%20LaGrange%20Rd%2C%20Palos%20Park%2C%20IL%2060464%2C%20USA,structured-data,high,Present on the current site map but not in the provided known list.
Al and Joe's,8.9,Hot Pastrami,10348 Addison Ave,Franklin Park,IL,41.943897,-87.884776,https://www.instagram.com/reel/C_afnxnOqBm/?igsh=bHc3bzlwZ3p6ZHcy,https://www.google.com/maps/dir/?api=1&destination=10348%20Addison%20Ave%2C%20Franklin%20Park%2C%20IL%2060131%2C%20USA,structured-data,high,
The Southern Kitchen,7.7,The Dirty Bird,818 E Kensington Rd,Arlington Heights,IL,42.0810554,-87.9724331,https://www.instagram.com/reel/C_fpcVDuxU3/?igsh=MTJjdDZlN2RyMzA0Mw%3D%3D,https://www.google.com/maps/dir/?api=1&destination=818%20E%20Kensington%20Rd%2C%20Arlington%20Heights%2C%20IL%2060004%2C%20USA,structured-data,high,Corrected from the live map screenshot and Google Maps listing.
Taqueria Invicto,8.2,Cali Burrito w/ Steak,1715 W 22nd St,Oak Brook,IL,41.8460668,-87.960358,https://www.instagram.com/reel/C_k5NcnuplF/?igsh=MTQ1aHB2bTZ5NWN1eA%3D%3D,https://www.google.com/maps/dir/?api=1&destination=1715%20W%2022nd%20St%2C%20Oak%20Brook%2C%20IL%2060523%2C%20USA,structured-data,high,
Sfera Sicilian Street Food,7.9,Alla Norma Sicilian Style Pizza,5759 N Broadway,Chicago,IL,41.9871073,-87.6598116,https://www.instagram.com/reel/C_shN-OOm53/?igsh=MTY0OWUyem5uY2dzYg%3D%3D,https://www.google.com/maps/dir/?api=1&destination=5759%20N%20Broadway%2C%20Chicago%2C%20IL%2060660%2C%20USA,structured-data,high,
Atlas Chicken Shack,7.7,Chicken Tenders,511 S 3rd St,Geneva,IL,41.8822682,-88.3089649,https://www.instagram.com/reel/C_xq3OsPAQZ/?igsh=MTd0MWo1amxzYmV3bg%3D%3D,https://www.google.com/maps/dir/?api=1&destination=511%20S%203rd%20St%2C%20Geneva%2C%20IL%2060134%2C%20USA,structured-data,high,Corrected from the live map screenshot and geocoded from the exact street address.
Dorrie's Kitchen,8.7,Oxtail Philly Cheesesteak,600 E Devon Ave,Elk Grove Village,IL,41.9933478,-87.97902479999999,https://www.instagram.com/reel/C_20lbyv0Je/?igsh=MTJrZHBzang0MHU1MA%3D%3D,https://www.google.com/maps/dir/?api=1&destination=600%20E%20Devon%20Ave%2C%20Elk%20Grove%20Village%2C%20IL%2060007%2C%20USA,structured-data,high,
Steingolds,8,Pastrami Spiced Lox Bagel,3737 N Southport Ave,Chicago,IL,41.9500153,-87.6639128,https://www.instagram.com/reel/C_-iw6XvaW_/?igsh=MTY1ZHhtY2NoMWhlcw%3D%3D,https://www.google.com/maps/dir/?api=1&destination=3737%20N%20Southport%20Ave%2C%20Chicago%2C%20IL%2060613%2C%20USA,structured-data,high,
Finuccio & Sons,8.4,Proscuitto Sandwich,1612 E Algonquin Rd,Schaumburg,IL,42.067592,-88.0394541,https://www.instagram.com/reel/DADsjPaPXjp/?igsh=azJnZG1leHVibzYy,https://www.google.com/maps/dir/?api=1&destination=1612%20E%20Algonquin%20Rd%2C%20Schaumburg%2C%20IL%2060173%2C%20USA,structured-data,high,
Nemec Brothers,8.7,Grandma's Pie,542 Crescent Blvd,Glen Ellyn,IL,41.8767275,-88.0655013,https://www.instagram.com/reel/DAI5eAAPUqz/?igsh=NnhiZm14dnN1cXRo,https://www.google.com/maps/dir/?api=1&destination=542%20Crescent%20Blvd%2C%20Glen%20Ellyn%2C%20IL%2060137%2C%20USA,structured-data,high,Present on the current site map but not in the provided known list.
SmashIT Burger,7.9,Smash Burger,6037 Dempster St,Morton Grove,IL,42.0407805,-87.7776205,https://www.instagram.com/reel/DAQkZa-P8if/?igsh=YXpuMGFiajQydW5l,https://www.google.com/maps/dir/?api=1&destination=6037%20Dempster%20St%2C%20Morton%20Grove%2C%20IL%2060053%2C%20USA,structured-data,high,
Peppo's Subs,8.2,Windy City Cheesesteak w/ Guts,10303 S Roberts Rd,Palos Hills,IL,41.7036943,-87.8165547,https://www.instagram.com/reel/DAVt-oWP_Ws/?igsh=ZjV1MWNudjM4dmZq,https://www.google.com/maps/dir/?api=1&destination=10303%20S%20Roberts%20Rd%2C%20Palos%20Hills%2C%20IL%2060465%2C%20USA,structured-data,high,
Naansense,8.5,Lamb Naan Wrap,1715 W 22nd St,Oak Brook,IL,41.8460668,-87.960358,https://www.instagram.com/reel/DAa3o7JPESL/?igsh=bWZsczFyM2dhYmN1,https://www.google.com/maps/dir/?api=1&destination=1715%20W%2022nd%20St%2C%20Oak%20Brook%2C%20IL%2060523%2C%20USA,structured-data,high,
More Than Pasta,8,Vodka Beef Sausage Pasta,"Parking lot, 105 S NW Hwy",Park Ridge,IL,42.010167,-87.8274782,https://www.instagram.com/reel/DAimV1evpYW/?igsh=aXJkZDF5bDBhemFp,https://www.google.com/maps/dir/?api=1&destination=Parking%20lot%2C%20105%20S%20NW%20Hwy%2C%20Park%20Ridge%2C%20IL%2060068%2C%20USA,structured-data,high,
Tribecca's Sandwiches,8.8,Cubano Sandwich,2949 W Belmont Ave,Chicago,IL,41.9392141,-87.70221289999999,https://www.instagram.com/reel/DAnvb65vpJD/?igsh=MWFibGVlZXF0cGp3OA%3D%3D,https://www.google.com/maps/dir/?api=1&destination=2949%20W%20Belmont%20Ave%2C%20Chicago%2C%20IL%2060618%2C%20USA,structured-data,high,
K-Coop,8.1,Korean Fried Chicken,5900 Dempster St,Morton Grove,IL,42.0411338,-87.774135,https://www.instagram.com/reel/DAs5MBKvpbO/?igsh=NXM4bTFnMXZiMzQ4,https://www.google.com/maps/dir/?api=1&destination=5900%20Dempster%20St%2C%20Morton%20Grove%2C%20IL%2060053%2C%20USA,structured-data,high,
Rubino Italian Imports,7.8,Meatball Sub,16635 Oak Park Ave,Tinley Park,IL,41.58915229999999,-87.78404069999999,https://www.instagram.com/reel/DA0njbCvUSY/?igsh=MTh4cGRla2dlanppOA%3D%3D,https://www.google.com/maps/dir/?api=1&destination=16635%20Oak%20Park%20Ave%2C%20Tinley%20Park%2C%20IL%2060477%2C%20USA,structured-data,high,
Surf's Up,8.2,The Bomb Sandwich,220 Randhurst Village Dr,Mt Prospect,IL,42.0858262,-87.93196739999999,https://www.instagram.com/reel/DA5w_FAvhCx/?igsh=MTdoeDZmOTN6YjQycA%3D%3D,https://www.google.com/maps/dir/?api=1&destination=220%20Randhurst%20Village%20Dr%2C%20Mt%20Prospect%2C%20IL%2060056%2C%20USA,structured-data,high,Present on the current site map but not in the provided known list.
Spice Fire & Grill,8.4,Beef/Lamb Kebob,7925 Golf Rd,Morton Grove,IL,42.054025,-87.8233545,https://www.instagram.com/reel/DA-6nYsPo4p/?igsh=MjhraTc0ZG85MnRz,https://www.google.com/maps/dir/?api=1&destination=7925%20Golf%20Rd%2C%20Morton%20Grove%2C%20IL%2060053%2C%20USA,structured-data,high,
Novi's Beef,8.9,Italian Beef,6746 Ogden Ave,Berwyn,IL,41.827143,-87.79216269999999,https://www.instagram.com/reel/DBGpITSv3R3/?igsh=eTlhcWQ1ajVoOHhq,https://www.google.com/maps/dir/?api=1&destination=6746%20Ogden%20Ave%2C%20Berwyn%2C%20IL%2060402%2C%20USA,structured-data,high,Present on the current site map but not in the provided known list.
El Taurino,8,Quesabirria,4 Golf Center,Hoffman Estates,IL,42.0488132,-88.0829389,https://www.instagram.com/reel/DBL19XGvt-E/?igsh=MThxZTFqeXI3cHc0,https://www.google.com/maps/dir/?api=1&destination=4%20Golf%20Center%2C%20Hoffman%20Estates%2C%20IL%2060169%2C%20USA,structured-data,high,
Soulwich,8.3,Indonesian Ginger BBQ Sandwich,1634 Orrington Ave,Evanston,IL,42.0478712,-87.6811847,https://www.instagram.com/reel/DBQ8NkTvaup/?igsh=ODBuZmI3eGtqajY1,https://www.google.com/maps/dir/?api=1&destination=1634%20Orrington%20Ave%2C%20Evanston%2C%20IL%2060201%2C%20USA,structured-data,high,
Sassy Biscuits,7.9,Sausage Egg & Cheese Biscuit,112 N Main St,Wheaton,IL,41.8653558,-88.10687759999999,https://www.instagram.com/reel/DBYrEQ0R5By/?igsh=MXdxbnZla3J5ZXliag%3D%3D,https://www.google.com/maps/dir/?api=1&destination=112%20N%20Main%20St%2C%20Wheaton%2C%20IL%2060187%2C%20USA,structured-data,high,
Buns of Fire,8.3,The Hot Chick,466 W Half Day Rd,Buffalo Grove,IL,42.1972581,-87.9688436,https://www.instagram.com/reel/DBd02buPtmQ/?igsh=b3Uycm05dDh1Nmdp,https://www.google.com/maps/dir/?api=1&destination=466%20W%20Half%20Day%20Rd%2C%20Buffalo%20Grove%2C%20IL%2060089%2C%20USA,structured-data,high,Present on the current site map but not in the provided known list.
Franco's Cucina,8.2,Italian on Focaccia Bread,1550 Bourbon Pkwy,Streamwood,IL,42.0206482,-88.1459381,https://www.instagram.com/reel/DBi_hHkPnOk/?igsh=MWo0bDlpdnU0YnBjdQ%3D%3D,https://www.google.com/maps/dir/?api=1&destination=1550%20Bourbon%20Pkwy%2C%20Streamwood%2C%20IL%2060107%2C%20USA,structured-data,high,
Don's Dock,7.7,Shrimp Po Boy,1220 E Northwest Hwy,Des Plaines,IL,42.0442738,-87.8932907,https://www.instagram.com/reels/DBqsi9RPBbb/,https://www.google.com/maps/dir/?api=1&destination=1220%20E%20Northwest%20Hwy%2C%20Des%20Plaines%2C%20IL%2060016%2C%20USA,structured-data,high,Review URL was missing from both the structured payload and popup HTML. Present on the current site map but not in the provided known list.
Starship Subs,8.4,Crazy Club Sandwhich,7618 Madison St,Forest Park,IL,41.8792082,-87.8147889,https://www.instagram.com/reels/DBv2IIJRxV0/,https://www.google.com/maps/dir/?api=1&destination=7618%20Madison%20St%2C%20Forest%20Park%2C%20IL%2060130%2C%20USA,structured-data,high,Review URL was missing from both the structured payload and popup HTML.
601 Bar and Grill,7.8,Detriot Style Pizza with Sausage,601 Army Trail Blvd,Addison,IL,41.9304634,-88.0039424,https://www.instagram.com/reels/DB1AmIUv0f2/,https://www.google.com/maps/dir/?api=1&destination=601%20Army%20Trail%20Blvd%2C%20Addison%2C%20IL%2060101%2C%20USA,structured-data,high,Review URL was missing from both the structured payload and popup HTML.
Hong Ning,8.4,Pork Adobo,"East, 598 North Ave",Carol Stream,IL,41.90126739999999,-88.1012928,https://www.instagram.com/reels/DB801jAuO-W/,https://www.google.com/maps/dir/?api=1&destination=East%2C%20598%20North%20Ave%2C%20Carol%20Stream%2C%20IL%2060188%2C%20USA,structured-data,high,Review URL was missing from both the structured payload and popup HTML.
Mother's Ruin,8.3,French Onion Grilled Cheese,2943 N Milwaukee Ave,Chicago,IL,41.934953,-87.7165211,https://www.instagram.com/reel/DCB-HUUu0T_/,https://www.google.com/maps/dir/?api=1&destination=2943%20N%20Milwaukee%20Ave%2C%20Chicago%2C%20IL%2060618%2C%20USA,structured-data,high,Review URL was missing from both the structured payload and popup HTML.
Jerky Jerk,7.9,Jerk Chicken Sandwhich,3991 Algonquin Rd,Rolling Meadows,IL,42.062336,-88.0301022,https://www.instagram.com/reel/DCHHzblOjEs/,https://www.google.com/maps/dir/?api=1&destination=3991%20Algonquin%20Rd%2C%20Rolling%20Meadows%2C%20IL%2060008%2C%20USA,structured-data,high,Review URL was missing from both the structured payload and popup HTML.
Burt's Deli,8.5,The Yummy Sandwhich,114 Greentree Ctr,Libertyville,IL,42.2640473,-87.9507886,https://www.instagram.com/reel/DCO2BTcOQZu/,https://www.google.com/maps/dir/?api=1&destination=114%20Greentree%20Ctr%2C%20Libertyville%2C%20IL%2060048%2C%20USA,structured-data,high,Review URL was missing from both the structured payload and popup HTML. Present on the current site map but not in the provided known list.
Neighborhood Inn,7.5,Wings with Hood Sauce,2322 Hassell Rd,Hoffman Estates,IL,42.06250439999999,-88.1352772,https://www.instagram.com/reel/DCT_pXqRUg8/,https://www.google.com/maps/dir/?api=1&destination=2322%20Hassell%20Rd%2C%20Hoffman%20Estates%2C%20IL%2060169%2C%20USA,structured-data,high,Review URL was missing from both the structured payload and popup HTML.
Lotus Banh Mi,9,Sunny Side Up Banh Mi Sandwhich,3041 Butterfield Rd #111,Oak Brook,IL,41.8402321,-87.9938734,https://www.instagram.com/reel/DCZJPZgx8_I/,https://www.google.com/maps/dir/?api=1&destination=3041%20Butterfield%20Rd%20%23111%2C%20Oak%20Brook%2C%20IL%2060523%2C%20USA,structured-data,high,Review URL was missing from both the structured payload and popup HTML.
Daniel's Charcuterie,8.4,New Orleans Style Muffaletta,15 S Fairview Ave,Park Ridge,IL,42.0096688,-87.83238349999999,https://www.instagram.com/reel/DCg3v_NxtQ-/,https://www.google.com/maps/dir/?api=1&destination=15%20S%20Fairview%20Ave%2C%20Park%20Ridge%2C%20IL%2060068%2C%20USA,structured-data,high,Review URL was missing from both the structured payload and popup HTML.
SD Pizzaria,7.5,Shawarma Pizza,9111 N Milwaukee Ave,Niles,IL,42.0464305,-87.8309903,https://www.instagram.com/super_goode/reel/DCmDzDuxqRI/,https://www.google.com/maps/dir/?api=1&destination=9111%20N%20Milwaukee%20Ave%2C%20Niles%2C%20IL%2060714%2C%20USA,structured-data,high,Review URL was missing from both the structured payload and popup HTML.
Arctic Wolf Ale House,9.1,Bacon Smash Burger,1959 Huntley Rd,Dundee Township,IL,42.1075025,-88.3053996,https://www.instagram.com/reel/DCrLbJ8xH9z/,https://www.google.com/maps/dir/?api=1&destination=1959%20Huntley%20Rd%2C%20Dundee%20Township%2C%20IL%2060118%2C%20USA,structured-data,high,Review URL was missing from both the structured payload and popup HTML.
Fitchy's Home of the Hoagy,8.3,Sweet Steak Sandwhich,4285 167th St,Country Club Hills,IL,41.5839714,-87.7188394,https://www.instagram.com/reel/DCy5K_TxR75/,https://www.google.com/maps/dir/?api=1&destination=4285%20167th%20St%2C%20Country%20Club%20Hills%2C%20IL%2060478%2C%20USA,structured-data,high,Review URL was missing from both the structured payload and popup HTML. Present on the current site map but not in the provided known list.
Blue Box Café,8.5,Turkey Reuben,176 E Chicago St,Elgin,IL,42.0374292,-88.2828073,https://www.instagram.com/reel/DC4HixzxXZJ/,https://www.google.com/maps/dir/?api=1&destination=176%20E%20Chicago%20St%2C%20Elgin%2C%20IL%2060120%2C%20USA,structured-data,high,Review URL was missing from both the structured payload and popup HTML.
Taco Verde,9.2,Quesabirria Pizza,909 Greenwood Rd A,Glenview,IL,42.0721517,-87.83919120000002,https://www.instagram.com/reel/DC9MNC6x_5x/,https://www.google.com/maps/dir/?api=1&destination=909%20Greenwood%20Rd%20A%2C%20Glenview%2C%20IL%2060025%2C%20USA,structured-data,high,Review URL was missing from both the structured payload and popup HTML.
